[
    {
      "name": "Green Cross Pharmacy",
      "address1": "393 Hanover Street",
      "city": "Boston",
      "state": "MA",
      "zipCode": "02108",
      "latitude": 42.365142822266,
      "longitude": -71.052879333496,
      "phone": "6172273728",
      "email": "pharmacy@greencross.com",
      "fax": "6177420001",
      "distance": 0.15821025961609
    },
    {
      "name": "CVS",
      "address1": "263 Washington Street",
      "city": "Boston",
      "state": "MA",
      "zipCode": "02108",
      "latitude": 42.357696533203,
      "longitude": -71.058090209961,
      "phone": "6177427035",
      "email": "store01@cvs.com",
      "fax": "6177420001",
      "distance": 0.42181156854188
    },
    {
      "name": "Walgreens",
      "address1": "70 Summer Street",
      "city": "Boston",
      "state": "MA",
      "zipCode": "02108",
      "latitude": 42.354225158691,
      "longitude": -71.05818939209,
      "phone": "6172657488",
      "email": "store04@walgreens.com",
      "fax": "6177420001",
      "distance": 0.64790764418076
    },
    {
      "name": "CVS",
      "address1": "55 Summer Street",
      "city": "Boston",
      "state": "MA",
      "zipCode": "02108",
      "latitude": 42.354248046875,
      "longitude": -71.059280395508,
      "phone": "6175423153",
      "email": "store02@cvs.com",
      "fax": "6177420001",
      "distance": 0.66472368926192
    },
    {
      "name": "Gary Drug",
      "address1": "59 Charles Street",
      "city": "Boston",
      "state": "MA",
      "zipCode": "02108",
      "latitude": 42.357654571533,
      "longitude": -71.070045471191,
      "phone": "6174827419",
      "email": "pharmacy@garydrug.com",
      "fax": "6175553258",
      "distance": 0.88092783715337
    },
    {
      "name": "Stadtlander Pharmancy",
      "address1": "35 Kneeland Street",
      "city": "Boston",
      "state": "MA",
      "zipCode": "02108",
      "latitude": 42.350521087646,
      "longitude": -71.061958312988,
      "phone": "6175421885",
      "email": "drugs@standtlaner.com",
      "fax": "6177420001",
      "distance": 0.9550703435051
    },
    {
      "name": "Tai Tung Pharmacy",
      "address1": "256 Harrison Avenue",
      "city": "Boston",
      "state": "MA",
      "zipCode": "02108",
      "latitude": 42.347686767578,
      "longitude": -71.062515258789,
      "phone": "6174827419",
      "email": "drugs@taitungpharmacy.com",
      "fax": "6178974561",
      "distance": 1.1472634598687
    },
    {
      "name": "CVS",
      "address1": "400 Tremont Street",
      "city": "Boston",
      "state": "MA",
      "zipCode": "02108",
      "latitude": 42.34716796875,
      "longitude": -71.068336486816,
      "phone": "6175424601",
      "email": "store06@cvs.com",
      "fax": "6175420003",
      "distance": 1.3137031109027
    },
    {
      "name": "Main Street Pharmacy",
      "address1": "1234 Main Street",
      "city": "Boston",
      "state": "MA",
      "zipCode": "02109",
      "latitude": 42.383773803711,
      "longitude": -71.07243347168,
      "phone": "6175551212",
      "email": "admin@mainstpharm.com",
      "fax": "6175551313",
      "distance": 1.6910526467017
    },
    {
      "name": "CVS",
      "address1": "60 Broadway Plaza",
      "city": "Malden",
      "state": "MA",
      "zipCode": "02148",
      "latitude": 42.340133666992,
      "longitude": -71.068504333496,
      "phone": "7813245890",
      "email": "store1001@cvs.com",
      "fax": "7813245008",
      "distance": 1.7468754898962
    },
    {
      "name": "Rite Aid",
      "address1": "710 East Broadway",
      "city": "South Boston",
      "state": "MA",
      "zipCode": "02127",
      "latitude": 42.3362159729,
      "longitude": -71.036521911621,
      "phone": "6172695788",
      "email": "store02@riteaid.com",
      "fax": "6172695789",
      "distance": 2.0788657458441
    },
    {
      "name": "Rite Aid",
      "address1": "1295 Boylston Street",
      "city": "Boston",
      "state": "MA",
      "zipCode": "02215",
      "latitude": 42.344966888428,
      "longitude": -71.097679138184,
      "phone": "6172625770",
      "email": "store01@riteaid.com",
      "fax": "6172625771",
      "distance": 2.539346578116
    },
    {
      "name": "Rite Aid",
      "address1": "971 Bennington Street",
      "city": "Boston",
      "state": "MA",
      "zipCode": "02128",
      "latitude": 42.386192321777,
      "longitude": -71.007522583008,
      "phone": "6175610610",
      "email": "store03@riteaid.com",
      "fax": "6175610611",
      "distance": 2.8777861781185
    },
    {
      "name": "Walgreens",
      "address1": "130 Bowdoin Street",
      "city": "Boston",
      "state": "MA",
      "zipCode": "02108",
      "latitude": 42.303939819336,
      "longitude": -71.071281433105,
      "phone": "6172657487",
      "email": "store03@walgreens.com",
      "fax": "6177420001",
      "distance": 4.1841101766101
    },
    {
      "name": "Walgreens",
      "address1": "185 Centre Street",
      "city": "Malden",
      "state": "MA",
      "zipCode": "02148",
      "latitude": 42.424732208252,
      "longitude": -71.068511962891,
      "phone": "7813218888",
      "email": "store07@walgreens.com",
      "fax": "7813218080",
      "distance": 4.3124644600408
    },
    {
      "name": "Stop & Shop Pharmacy",
      "address1": "99 Charles Street",
      "city": "Malden",
      "state": "MA",
      "zipCode": "02148",
      "latitude": 42.424320220947,
      "longitude": -71.07154083252,
      "phone": "7813211768",
      "email": "pharmacy07@stopshop.com",
      "fax": "7813211700",
      "distance": 4.312867264735
    },
    {
      "name": "Shan-Lor Drug Inc",
      "address1": "44 Willow Street",
      "city": "Malden",
      "state": "MA",
      "zipCode": "02148",
      "latitude": 42.426727294922,
      "longitude": -71.05362701416,
      "phone": "7813214444",
      "email": "pharmacy@shanlor.com",
      "fax": "7813248989",
      "distance": 4.3909675299592
    },
    {
      "name": "Elmwood Pharmacy",
      "address1": "56 Pleasant Street",
      "city": "Malden",
      "state": "MA",
      "zipCode": "02148",
      "latitude": 42.426826477051,
      "longitude": -71.068786621094,
      "phone": "7813210055",
      "email": "pharmacy@elmwoodpharmacy.com",
      "fax": "7813214567",
      "distance": 4.4575369377581
    },
    {
      "name": "Walgreens",
      "address1": "215 Beach Street",
      "city": "Malden",
      "state": "MA",
      "zipCode": "02148",
      "latitude": 42.430965423584,
      "longitude": -71.024513244629,
      "phone": "7813245656",
      "email": "store08@walgreens.com",
      "fax": "7813240066",
      "distance": 4.9275574335581
    },
    {
      "name": "Mail Order Pharmacy 10.6",
      "address1": "Address Lane 1234",
      "address2": "Suite 500",
      "city": "Arlington",
      "state": "VA",
      "zipCode": "22201",
      "latitude": 38.879970550537,
      "longitude": -77.106773376465,
      "phone": "7039215367",
      "email": "admin@mailorderpharmacy.com",
      "fax": "7039214378",
      "distance": 398.2656882973
    },
    {
      "name": "Mail Order Pharmacy 10.6MU",
      "address1": "9292 Langley Rd",
      "city": "Phoenix",
      "state": "AZ",
      "zipCode": "85001",
      "latitude": 33.449214935303,
      "longitude": -112.06920623779,
      "phone": "6235552323",
      "fax": "6235552322",
      "distance": 2295.774022355
    }
]
